City_ID,City,Lat,Lng,Max Temp,Current Description,Humidity,Cloudiness,Wind Speed,Country
0,Kodiak,57.79,-152.4072,38.71,moderate rain,93,100,31.07,US
1,Jalu,29.0331,21.5482,80.06,clear sky,19,4,8.57,LY
2,Djenne,13.9061,-4.5533,96.71,scattered clouds,19,44,1.92,ML
3,Puerto Ayora,-0.7393,-90.3518,80.56,overcast clouds,78,89,8.7,EC
4,Sept-Iles,50.2001,-66.3821,46.06,light rain,58,100,14.0,CA
5,Asuncion,-25.3007,-57.6359,78.24,broken clouds,65,75,9.22,PY
6,Port Alfred,-33.5906,26.891,58.17,clear sky,81,1,1.99,ZA
7,Norman Wells,65.282,-126.8329,44.64,clear sky,53,0,11.5,CA
8,Rikitea,-23.1203,-134.9692,75.92,moderate rain,76,51,12.15,PF
9,Okhtyrka,50.3104,34.8988,45.28,broken clouds,77,55,6.87,UA
10,Port Elizabeth,-33.918,25.5701,61.09,clear sky,78,0,16.11,ZA
11,Mataura,-46.1927,168.8643,64.47,overcast clouds,86,100,3.8,NZ
12,Atuona,-9.8,-139.0333,78.89,clear sky,76,7,13.38,PF
13,Mar Del Plata,-38.0023,-57.5575,57.22,clear sky,55,0,11.5,AR
14,Kirovskiy,45.0917,133.5136,38.34,overcast clouds,92,100,5.41,RU
15,Padang,-0.9492,100.3543,77.34,light rain,90,99,4.59,ID
16,Buarcos,40.166,-8.8768,62.94,clear sky,88,0,10.8,PT
17,La Rioja,42.25,-2.5,53.38,overcast clouds,87,97,3.09,ES
18,Yellowknife,62.456,-114.3525,34.32,clear sky,47,0,5.75,CA
19,Qaanaaq,77.484,-69.3632,16.54,overcast clouds,76,89,4.25,GL
20,Punta Arenas,-53.15,-70.9167,44.71,scattered clouds,76,40,9.22,CL
21,Hilo,19.7297,-155.09,77.29,light rain,93,100,5.75,US
22,Bonfim,3.0833,-59.95,86.38,overcast clouds,56,98,1.88,BR
23,Svetlyy,54.675,20.1347,48.25,overcast clouds,70,100,8.41,RU
24,Tuktoyaktuk,69.4541,-133.0374,30.2,few clouds,80,20,9.22,CA
25,Saint-Philippe,-21.3585,55.7679,76.59,clear sky,79,9,11.48,RE
26,San Blas,21.5167,-105.2667,84.27,scattered clouds,42,46,8.77,MX
27,Thiene,45.7088,11.4796,63.18,broken clouds,66,55,4.45,IT
28,Xining,36.6167,101.7667,32.34,light snow,78,100,2.33,CN
29,Bluff,-46.6,168.3333,64.8,light rain,66,100,14.05,NZ
30,Kenai,60.5544,-151.2583,44.1,clear sky,54,0,17.27,US
31,Port Blair,11.6667,92.75,82.74,broken clouds,72,61,3.15,IN
32,Geraldton,-28.7667,114.6,55.81,clear sky,71,0,11.5,AU
33,Mount Pleasant,32.7941,-79.8626,82.06,clear sky,51,0,13.8,US
34,Kruisfontein,-34.0033,24.7314,52.88,clear sky,86,7,6.93,ZA
35,Hamilton,39.1834,-84.5333,72.77,broken clouds,74,75,12.66,US
36,Fare,-16.7,-151.0167,81.18,light rain,72,1,15.3,PF
37,Cape Town,-33.9258,18.4232,60.28,clear sky,79,0,4.61,ZA
38,Dickinson,29.4608,-95.0513,88.16,broken clouds,75,75,12.66,US
39,Ancud,-41.8697,-73.8203,52.0,overcast clouds,80,100,6.89,CL
40,El Alto,-4.2714,-81.2147,76.66,scattered clouds,67,33,16.26,PE
41,Waipawa,-41.4122,175.5153,48.94,broken clouds,82,65,8.41,NZ
42,Viedma,-40.8135,-62.9967,60.84,broken clouds,30,81,12.57,AR
43,Kutum,14.2,24.6667,81.36,broken clouds,12,61,7.96,SD
44,Nanortalik,60.1432,-45.2371,38.01,overcast clouds,84,98,1.14,GL
45,Bathurst,-33.4166,149.5806,42.82,clear sky,89,1,2.3,AU
46,New Norfolk,-42.7826,147.0587,56.91,overcast clouds,76,100,3.0,AU
47,Hambantota,6.1241,81.1185,81.25,overcast clouds,85,100,14.29,LK
48,Shingu,33.7333,135.9833,58.95,overcast clouds,85,100,7.78,JP
49,Khatanga,71.9667,102.5,3.4,overcast clouds,99,92,7.54,RU
50,Odessa,46.4775,30.7326,53.22,broken clouds,67,59,3.91,UA
51,Katsuura,35.1333,140.3,56.97,overcast clouds,73,100,9.55,JP
52,Lompoc,34.6391,-120.4579,82.78,clear sky,62,0,21.99,US
53,Chara,56.9064,118.2631,31.44,light snow,90,99,2.55,RU
54,Houma,29.5958,-90.7195,88.02,clear sky,63,0,8.01,US
55,Ushuaia,-54.8,-68.3,40.66,clear sky,87,0,3.44,AR
56,Upernavik,72.7868,-56.1549,19.26,broken clouds,71,74,3.18,GL
57,Bathsheba,13.2167,-59.5167,81.34,overcast clouds,67,95,14.45,BB
58,Mantua,45.1667,10.7833,65.35,broken clouds,62,80,2.15,IT
59,Hithadhoo,-0.6,73.0833,85.32,overcast clouds,68,100,14.65,MV
60,Hit,33.6416,42.8251,81.43,overcast clouds,27,99,14.07,IQ
61,Vaini,-21.2,-175.2,77.16,light intensity drizzle,94,100,9.22,TO
62,Ponta Do Sol,32.6667,-17.1,68.72,clear sky,69,0,2.17,PT
63,Barcelos,41.5388,-8.6151,62.69,clear sky,89,1,3.58,PT
64,Bredasdorp,-34.5322,20.0403,56.03,few clouds,86,11,5.48,ZA
65,Magadan,59.5667,150.8,29.53,few clouds,73,11,6.13,RU
66,Albany,42.6001,-73.9662,63.77,overcast clouds,26,89,1.01,US
67,Victoria,22.2855,114.1577,77.32,light rain,87,100,15.01,HK
68,Busselton,-33.65,115.3333,54.99,clear sky,87,0,5.82,AU
69,Kushiro,42.975,144.3747,39.33,overcast clouds,59,100,1.63,JP
70,Cache Creek,50.8101,-121.3246,56.91,overcast clouds,73,100,2.53,CA
71,Codrington,-38.2667,141.9667,57.61,overcast clouds,83,100,13.51,AU
72,Hobart,-42.8794,147.3294,57.25,overcast clouds,75,100,5.75,AU
73,Bambous Virieux,-20.3428,57.7575,77.25,scattered clouds,83,40,6.91,MU
74,Vardo,70.3705,31.1107,28.09,light snow,65,90,16.82,NO
75,Bengkulu,-3.8004,102.2655,76.19,moderate rain,88,86,5.19,ID
76,Umm Lajj,25.0213,37.2685,86.04,few clouds,46,19,9.04,SA
77,Jamestown,42.097,-79.2353,67.51,clear sky,22,0,8.05,US
78,Vila Velha,-20.3297,-40.2925,84.15,few clouds,79,20,9.22,BR
79,Waingapu,-9.6567,120.2641,77.74,overcast clouds,86,87,5.57,ID
80,Nikolskoye,59.7035,30.7861,40.91,overcast clouds,68,100,6.8,RU
81,Lagoa,39.05,-27.9833,60.98,clear sky,87,0,10.51,PT
82,Along,28.1667,94.7667,64.29,broken clouds,89,81,1.14,IN
83,Zhanaozen,43.3,52.8,60.48,overcast clouds,71,98,1.59,KZ
84,Mahebourg,-20.4081,57.7,77.29,scattered clouds,83,40,6.91,MU
85,Avarua,-21.2078,-159.775,82.45,few clouds,74,20,9.22,CK
86,Cumana,10.4635,-64.1775,84.04,scattered clouds,71,41,6.98,VE
87,Oktyabrskiy,54.4815,53.471,42.84,broken clouds,61,75,2.73,RU
88,Barrow,71.2906,-156.7887,17.62,haze,79,20,13.8,US
89,Poso,-1.3959,120.7524,76.6,broken clouds,84,76,3.4,ID
90,Cidreira,-30.1811,-50.2056,65.95,overcast clouds,70,100,9.84,BR
91,Salalah,17.0151,54.0924,86.09,broken clouds,79,75,4.61,OM
92,Aswan,24.0934,32.907,94.3,clear sky,10,0,6.91,EG
93,Zhezkazgan,47.8043,67.7144,67.75,overcast clouds,32,100,5.37,KZ
94,Hirosaki,40.5931,140.4725,44.51,overcast clouds,65,100,5.39,JP
95,Tasiilaq,65.6145,-37.6368,41.16,clear sky,63,10,0.56,GL
96,Husavik,66.0449,-17.3389,50.7,overcast clouds,56,100,7.11,IS
97,Tromso,69.6496,18.957,30.38,broken clouds,86,75,4.61,NO
98,Chokurdakh,70.6333,147.9167,12.56,scattered clouds,94,31,7.94,RU
99,Casablanca,33.5928,-7.6192,68.22,few clouds,68,16,6.91,MA
100,Erenhot,43.6475,111.9767,47.73,scattered clouds,40,47,10.92,CN
101,Bethel,41.3712,-73.414,65.01,clear sky,33,0,7.0,US
102,Linxia,35.6003,103.2064,38.28,overcast clouds,77,100,2.26,CN
103,Caravelas,-17.7125,-39.2481,76.86,clear sky,74,2,4.72,BR
104,Sechura,-5.5569,-80.8222,80.06,overcast clouds,56,85,11.99,PE
105,Dengzhou,37.8086,120.7508,50.14,clear sky,41,0,16.28,CN
106,Mehamn,71.0357,27.8492,28.35,light snow,86,75,9.22,NO
107,Arraial Do Cabo,-22.9661,-42.0278,76.86,broken clouds,78,75,5.75,BR
108,Isangel,-19.55,169.2667,78.58,overcast clouds,90,100,9.82,VU
109,Tiksi,71.6872,128.8694,34.25,overcast clouds,89,100,17.16,RU
110,Henties Bay,-22.116,14.2845,59.36,clear sky,81,0,6.67,NA
111,Ziro,27.6333,93.8333,48.06,broken clouds,94,54,1.97,IN
112,Coihaique,-45.5752,-72.0662,52.41,broken clouds,71,75,8.05,CL
113,Sawakin,19.1059,37.3321,84.29,overcast clouds,70,91,1.34,SD
114,Mujiayingzi,42.1167,118.7833,44.46,overcast clouds,20,97,9.15,CN
115,Arlit,18.7369,7.3853,92.88,overcast clouds,7,100,6.44,NE
116,Karpinsk,59.7654,60.0085,30.96,broken clouds,70,78,5.57,RU
117,Zhigansk,66.7697,123.3711,30.81,snow,97,100,31.97,RU
118,Seymchan,62.8833,152.4333,18.88,broken clouds,93,68,3.49,RU
119,Pevek,69.7008,170.3133,1.87,overcast clouds,98,100,4.94,RU
120,Meulaboh,4.1363,96.1285,78.53,overcast clouds,87,100,0.78,ID
121,Coquimbo,-29.9533,-71.3436,58.73,few clouds,77,20,12.66,CL
122,Petropavlovsk-Kamchatskiy,53.0452,158.6483,30.79,scattered clouds,69,40,4.47,RU
123,Donskoy,53.9711,38.3363,36.66,clear sky,66,1,4.09,RU
124,Kismayo,-0.3582,42.5454,81.59,light rain,81,9,13.65,SO
125,Otane,-39.8833,176.6333,46.47,clear sky,86,0,2.17,NZ
126,Iqaluit,63.7506,-68.5145,26.33,overcast clouds,73,100,8.05,CA
127,Mount Isa,-20.7333,139.5,65.97,broken clouds,82,54,4.61,AU
128,Bara,10.3744,10.7288,84.88,moderate rain,47,91,9.51,NG
129,Nantucket,41.2835,-70.0995,53.74,clear sky,50,0,12.66,US
130,Fortuna,40.5982,-124.1573,55.92,overcast clouds,81,93,1.99,US
131,Kapaa,22.0752,-159.319,77.47,scattered clouds,77,40,17.27,US
132,Lima,-12.0432,-77.0282,72.39,clear sky,81,0,10.36,PE
133,Souillac,-20.5167,57.5167,77.38,scattered clouds,83,40,6.91,MU
134,Cherskiy,68.75,161.3,9.81,broken clouds,93,80,4.63,RU
135,Hermanus,-34.4187,19.2345,58.93,broken clouds,86,79,3.0,ZA
136,Clyde River,70.4692,-68.5914,16.03,overcast clouds,86,100,6.91,CA
137,Vanimo,-2.6741,141.3028,76.73,overcast clouds,86,97,3.36,PG
138,Namibe,-15.1961,12.1522,74.95,scattered clouds,81,38,7.36,AO
139,Tocopilla,-22.092,-70.1979,68.7,scattered clouds,71,27,7.85,CL
140,Chunhuhub,19.55,-88.6833,87.28,broken clouds,56,71,6.29,MX
141,Vila Do Maio,15.1333,-23.2167,74.19,overcast clouds,79,100,13.6,CV
142,Alofi,-19.0595,-169.9187,75.09,overcast clouds,94,94,5.75,NU
143,Chuy,-33.6971,-53.4616,58.48,overcast clouds,65,100,4.79,UY
144,San Policarpo,12.1791,125.5072,79.99,overcast clouds,79,100,8.99,PH
145,Dikson,73.5069,80.5464,16.43,light snow,94,100,18.54,RU
146,Birao,10.2849,22.7882,88.45,overcast clouds,30,92,2.71,CF
147,Tiarei,-17.5333,-149.3333,82.42,scattered clouds,75,38,15.39,PF
148,Yining,29.0361,114.5636,55.96,overcast clouds,96,100,2.01,CN
149,Shakawe,-18.3667,21.85,69.71,broken clouds,41,78,4.88,BW
150,San Cristobal,7.7669,-72.225,84.38,overcast clouds,82,100,6.49,VE
151,Tiznit,29.5833,-9.5,70.02,clear sky,36,0,4.41,MA
152,Rio Gallegos,-51.6226,-69.2181,48.25,clear sky,49,0,2.3,AR
153,Lagoa Vermelha,-28.2086,-51.5258,61.93,heavy intensity rain,98,100,3.44,BR
154,Gazojak,41.1875,61.4036,76.17,overcast clouds,30,100,19.33,TM
155,Kalemie,-5.9475,29.1947,71.01,light rain,84,95,1.16,CD
156,Bubaque,11.2833,-15.8333,77.31,broken clouds,72,64,12.84,GW
157,Krutinka,56.0055,71.5113,39.04,overcast clouds,59,100,13.67,RU
158,Dong Hoi,17.4833,106.6,75.34,overcast clouds,96,100,0.54,VN
159,Maxixe,-23.8597,35.3472,68.23,clear sky,86,3,5.82,MZ
160,Thompson,55.7435,-97.8558,41.16,overcast clouds,60,100,11.5,CA
161,Tautira,-17.7333,-149.15,79.92,light rain,75,58,14.34,PF
162,Berdigestyakh,62.0989,126.6992,24.44,clear sky,90,10,5.61,RU
163,Provideniya,64.3833,-173.3,30.7,light snow,91,100,15.73,RU
164,Mackenzie,55.2999,-123.1698,50.22,clear sky,40,0,6.91,CA
165,Kano,12.0001,8.5167,93.09,clear sky,27,0,4.61,NG
166,Portland,45.5234,-122.6762,57.24,broken clouds,82,75,9.22,US
167,Maizuru,35.45,135.3333,54.01,light rain,97,100,3.36,JP
168,College,64.8569,-147.8028,54.09,broken clouds,39,75,6.91,US
169,Sarana,56.4773,57.7259,40.64,overcast clouds,48,100,2.73,RU
170,Mandalgovi,45.7625,106.2708,45.36,broken clouds,33,62,8.19,MN
171,Ayorou,14.7308,0.9174,95.0,broken clouds,9,61,6.96,NE
172,Palu,-0.8917,119.8707,76.23,overcast clouds,93,98,3.38,ID
173,Naze,28.3667,129.4833,63.52,overcast clouds,75,100,12.93,JP
174,Cabedelo,-6.9811,-34.8339,83.07,overcast clouds,75,100,15.37,BR
175,Halberstadt,51.9,11.05,52.88,scattered clouds,82,48,6.13,DE
176,Hangu,39.2489,117.7892,55.44,clear sky,24,0,9.89,CN
177,Ucluelet,48.9329,-125.5528,52.11,overcast clouds,83,95,6.98,CA
178,Sajanan,37.0573,9.2426,58.12,overcast clouds,85,100,2.33,TN
179,Georgetown,5.4112,100.3354,82.35,few clouds,89,20,3.44,MY
180,Inhambane,-23.865,35.3833,69.17,clear sky,85,3,6.26,MZ
181,Batsfjord,70.6345,29.7185,26.38,light snow,86,91,16.11,NO
182,Garissa,-0.4536,39.6401,80.26,overcast clouds,73,90,18.45,KE
183,Nanakuli,21.3906,-158.1547,77.11,broken clouds,68,75,8.05,US
184,Guerrero Negro,27.9769,-114.0611,68.47,broken clouds,57,80,15.28,MX
185,Ojinaga,29.5667,-104.4167,95.58,clear sky,12,0,4.61,MX
186,Longyearbyen,78.2186,15.6401,12.04,clear sky,57,0,4.61,SJ
187,Vung Tau,10.346,107.0843,80.78,overcast clouds,83,100,8.48,VN
188,Saint George,37.1041,-113.5841,81.79,clear sky,13,0,8.05,US
189,Yulara,-25.2406,130.9889,60.64,overcast clouds,63,100,9.22,AU
190,Sitka,57.0531,-135.33,49.89,few clouds,66,20,5.75,US
191,Hasaki,35.7333,140.8333,45.0,overcast clouds,61,100,10.38,JP
192,Mahajanga,-15.7167,46.3167,78.89,light rain,78,0,8.21,MG
193,Yar-Sale,66.8333,70.8333,16.09,scattered clouds,89,33,9.57,RU
194,Port Macquarie,-31.4333,152.9167,57.88,clear sky,88,7,8.97,AU
195,Marathon,44.9,-89.7668,45.64,overcast clouds,85,100,19.57,US
196,Baturaja,-4.1333,104.1667,73.51,light rain,98,85,1.43,ID
197,East London,-33.0153,27.9116,62.89,clear sky,71,0,12.64,ZA
198,Kahului,20.8947,-156.47,78.82,scattered clouds,72,40,20.0,US
199,Olavarria,-36.8927,-60.3225,52.02,clear sky,58,0,7.72,AR
200,Road Town,18.4167,-64.6167,78.89,moderate rain,94,40,4.61,VG
201,Saskylakh,71.9167,114.0833,10.72,overcast clouds,93,100,16.37,RU
202,Jesus Carranza,17.4333,-95.0333,102.4,broken clouds,27,63,14.65,MX
203,Manadhoo,5.7667,73.3833,84.11,overcast clouds,76,90,11.9,MV
204,Urgut,39.4022,67.2431,69.42,overcast clouds,54,100,3.69,UZ
205,Ilulissat,69.2167,-51.1,19.36,clear sky,76,5,10.63,GL
206,Sinnamary,5.3833,-52.95,82.27,scattered clouds,72,46,9.33,GF
207,Samana,19.2056,-69.3369,82.36,broken clouds,89,75,6.91,DO
208,Ixtapa,20.7,-105.2,94.17,overcast clouds,20,93,9.15,MX
209,Tecolutilla,18.2833,-93.3167,96.01,few clouds,43,23,14.45,MX
210,Ribeira Grande,38.5167,-28.7,64.8,few clouds,77,20,10.36,PT
211,Cabo San Lucas,22.8909,-109.9124,85.6,broken clouds,55,63,8.97,MX
212,Airai,-8.9266,125.4092,59.67,overcast clouds,84,87,3.02,TL
213,Ketchikan,55.3422,-131.6461,52.27,clear sky,58,0,10.36,US
214,Lokhvytsya,50.3678,33.2602,45.46,broken clouds,77,55,6.62,UA
215,Deep River,46.1001,-77.4995,60.94,clear sky,24,6,7.05,CA
216,San Rafael,-34.6177,-68.3301,67.62,clear sky,27,0,5.68,AR
217,Vazante,-17.9869,-46.9078,81.55,clear sky,40,2,1.19,BR
218,Huarmey,-10.0681,-78.1522,72.37,broken clouds,74,68,11.63,PE
219,Acapulco,16.8634,-99.8901,87.24,overcast clouds,49,92,11.81,MX
220,Torbay,47.6666,-52.7314,44.76,fog,96,100,3.44,CA
221,Vostok,46.4856,135.8833,34.84,overcast clouds,79,100,3.78,RU
222,Aykhal,66.0,111.5,12.74,light snow,93,100,25.48,RU
223,Dingle,10.9995,122.6711,76.75,light rain,86,100,5.93,PH
224,Brae,60.3964,-1.353,45.34,overcast clouds,74,91,12.15,GB
225,La Ronge,55.1001,-105.2842,39.45,overcast clouds,75,100,8.05,CA
226,Udachnyy,66.4167,112.4,17.46,light snow,85,100,22.82,RU
227,Atambua,-9.1061,124.8925,72.73,overcast clouds,90,98,4.41,ID
228,Southbridge,42.0751,-72.0334,61.86,overcast clouds,36,100,5.01,US
229,Bichura,50.5881,107.6022,47.91,overcast clouds,64,94,4.36,RU
230,Vestmannaeyjar,63.4427,-20.2734,46.51,scattered clouds,85,25,18.23,IS
231,Esperance,-33.8667,121.9,55.24,clear sky,69,0,6.64,AU
232,Neutraubling,48.9833,12.2,55.31,overcast clouds,65,100,6.8,DE
233,Caconde,-21.5294,-46.6439,67.68,overcast clouds,85,93,5.12,BR
234,Kaitangata,-46.2817,169.8464,50.32,overcast clouds,84,100,5.82,NZ
235,Chitipa,-9.7024,33.2697,61.5,overcast clouds,97,90,3.56,MW
236,Avera,33.194,-82.5271,83.55,clear sky,40,7,6.91,US
237,Sujangarh,27.7011,74.4649,89.33,clear sky,19,5,9.13,IN
238,Klaksvik,62.2266,-6.589,45.52,scattered clouds,88,25,8.43,FO
239,Champua,22.0833,85.6667,80.15,clear sky,66,7,5.61,IN
240,Sao Joao Da Barra,-21.6403,-41.0511,77.09,few clouds,79,12,11.07,BR
241,Herat,34.5,62.0,78.39,overcast clouds,22,100,6.87,AF
242,Ouagadougou,12.3642,-1.5383,95.13,clear sky,34,0,3.44,BF
243,Butaritari,3.0707,172.7902,80.82,broken clouds,82,74,13.73,KI
244,Kavaratti,10.5669,72.642,84.94,scattered clouds,72,48,10.27,IN
245,Rawah,34.4816,41.9093,81.68,overcast clouds,27,99,15.66,IQ
246,Kalmunai,7.4167,81.8167,81.54,few clouds,81,14,3.83,LK
247,Chicama,-7.8447,-79.1469,64.94,scattered clouds,59,32,9.42,PE
248,Cap Malheureux,-19.9842,57.6142,74.46,clear sky,80,5,16.11,MU
249,Dwarka,22.2394,68.9678,83.05,clear sky,86,0,19.35,IN
250,Perigueux,45.1833,0.7167,62.01,overcast clouds,57,100,7.05,FR
251,Malm,64.0721,11.2172,42.78,broken clouds,84,60,6.31,NO
252,Lebu,-37.6167,-73.65,53.96,clear sky,65,2,15.28,CL
253,Yigou,35.8114,114.3167,52.27,overcast clouds,55,100,8.55,CN
254,Sao Filipe,14.8961,-24.4956,72.34,broken clouds,75,83,8.41,CV
255,Mount Gambier,-37.8333,140.7667,55.31,overcast clouds,100,100,9.22,AU
256,Paamiut,61.994,-49.6678,33.01,broken clouds,93,77,14.52,GL
257,Awbari,26.5921,12.7805,84.56,clear sky,9,2,12.64,LY
258,Rajanpur,29.1035,70.325,96.49,clear sky,8,0,7.87,PK
259,Xifeng,42.7372,124.7222,37.94,overcast clouds,60,100,3.6,CN
260,Veydelevka,50.1521,38.4492,46.22,broken clouds,67,62,9.31,RU
261,Najran,17.4924,44.1277,81.25,clear sky,34,9,2.64,SA
262,Ginir,7.1333,40.7,58.75,light rain,87,51,4.41,ET
263,Quelimane,-17.8786,36.8883,75.15,few clouds,88,20,2.3,MZ
264,Fort Frances,48.5999,-93.4003,43.02,mist,68,100,12.66,CA
265,Ihosy,-22.4,46.1167,61.95,scattered clouds,93,25,1.74,MG
266,Merritt,50.1123,-120.7942,45.88,overcast clouds,91,100,1.45,CA
267,Eureka,40.8021,-124.1637,56.57,overcast clouds,76,98,1.99,US
268,Constitucion,-35.3333,-72.4167,60.21,clear sky,52,2,15.05,CL
269,Kiunga,-6.1219,141.2906,74.88,overcast clouds,90,100,1.19,PG
270,Bako,5.7833,36.5667,62.31,light rain,92,96,4.68,ET
271,Bardiyah,31.7561,25.0865,64.72,broken clouds,77,67,11.63,LY
272,Cayenne,4.9333,-52.3333,86.04,scattered clouds,26,40,11.5,GF
273,Aksarka,66.5606,67.7975,14.56,few clouds,92,13,7.7,RU
274,Salekhard,66.53,66.6019,11.03,clear sky,91,10,6.13,RU
275,Deulgaon Raja,20.0167,76.0333,87.24,clear sky,21,5,9.26,IN
276,Egvekinot,66.3167,-179.1667,15.26,overcast clouds,80,100,11.01,RU
277,Talnakh,69.4865,88.3972,18.21,overcast clouds,98,100,7.76,RU
278,Atliaca,17.65,-99.3667,91.74,scattered clouds,19,44,5.23,MX
279,Izhmorskiy,56.194,86.6414,49.46,overcast clouds,88,100,10.13,RU
280,Lavrentiya,65.5833,-171.0,25.86,overcast clouds,87,100,15.26,RU
281,San Patricio,28.017,-97.5169,87.17,overcast clouds,62,95,16.4,US
282,Sur,22.5667,59.5289,88.83,overcast clouds,53,90,3.67,OM
283,Quatre Cocos,-20.2078,57.7625,77.11,scattered clouds,80,41,11.1,MU
284,Cockburn Town,21.4612,-71.1419,82.36,scattered clouds,57,40,17.27,TC
285,Jalalpur,32.6374,74.2183,85.87,haze,39,20,0.0,PK
286,Rosetta,31.4044,30.4164,64.6,clear sky,84,3,14.18,EG
287,Novopokrovka,49.8425,36.5477,47.25,scattered clouds,63,50,6.02,UA
288,Haines Junction,60.7522,-137.5108,46.35,overcast clouds,46,92,4.61,CA
289,Kavieng,-2.5744,150.7967,81.41,light rain,75,100,3.18,PG
290,Taltal,-25.4,-70.4833,65.1,few clouds,73,24,7.11,CL
291,Carnarvon,-24.8667,113.6333,64.47,clear sky,55,0,8.05,AU
292,Porosozero,62.7191,32.727,33.08,light snow,87,100,5.19,RU
293,Ibra,22.6906,58.5334,86.92,overcast clouds,34,100,1.79,OM
294,Wencheng,33.0559,113.7978,50.65,overcast clouds,54,100,3.83,CN
295,Inuvik,68.3499,-133.7218,49.06,scattered clouds,44,40,5.75,CA
296,Los Llanos De Aridane,28.6585,-17.9182,65.12,few clouds,79,20,13.8,ES
297,San Ramon,37.7799,-121.978,78.82,clear sky,57,0,13.8,US
298,Beringovskiy,63.05,179.3167,24.85,light snow,92,100,17.81,RU
299,Korla,41.7597,86.1469,58.51,clear sky,29,5,3.67,CN
300,Lata,40.1629,-8.3327,56.95,clear sky,76,1,3.24,PT
301,Labuhan,-6.8844,112.2051,79.23,overcast clouds,89,100,8.5,ID
302,Mercedes,-34.6515,-59.4307,59.04,overcast clouds,56,87,2.57,AR
303,Ormara,25.2088,64.6357,84.76,clear sky,73,0,16.42,PK
304,Srednekolymsk,67.45,153.6833,15.71,broken clouds,88,83,2.1,RU
305,Severo-Kurilsk,50.6789,156.125,34.41,overcast clouds,82,100,7.09,RU
306,Bonavista,48.6499,-53.1147,36.32,light rain,97,100,9.57,CA
307,Sayan,-11.1361,-77.1933,80.98,scattered clouds,48,42,9.19,PE
308,Belmonte,-15.8631,-38.8828,77.27,few clouds,78,20,5.79,BR
309,Nelson Bay,-32.7167,152.15,59.0,light rain,94,43,10.18,AU
310,Port Lincoln,-34.7333,135.8667,58.5,few clouds,84,22,8.32,AU
311,East Bethel,45.3194,-93.2025,51.84,mist,93,100,13.8,US
312,Maniitsoq,65.4167,-52.9,26.85,clear sky,63,1,12.17,GL
313,Leninskoye,41.7589,69.3864,67.15,clear sky,53,3,5.53,KZ
314,Samarai,-10.6167,150.6667,79.77,broken clouds,79,61,5.84,PG
315,Hualmay,-11.0964,-77.6139,70.93,broken clouds,75,71,9.86,PE
316,Ponta Delgada,37.7333,-25.6667,63.32,few clouds,88,20,9.22,PT
317,Nosy Varika,-20.5833,48.5333,70.83,scattered clouds,80,38,4.99,MG
318,Kavaje,41.1856,19.5569,59.16,few clouds,77,11,5.3,AL
319,Leningradskiy,69.3833,178.4167,9.64,broken clouds,91,71,4.41,RU
320,Jyvaskyla,62.2415,25.7209,35.94,clear sky,100,0,2.3,FI
321,Pringsewu,-5.3582,104.9744,73.78,overcast clouds,97,93,3.62,ID
322,Dunedin,-45.8742,170.5036,54.81,overcast clouds,83,100,1.99,NZ
323,Tarbagatay,51.4803,107.3602,40.53,overcast clouds,60,100,4.41,RU
324,El Tigre,8.8875,-64.2454,92.14,overcast clouds,31,100,8.52,VE
325,Faanui,-16.4833,-151.75,81.3,light rain,72,9,15.73,PF
326,Qaqortoq,60.7167,-46.0333,41.13,scattered clouds,74,40,2.37,GL
327,Sassandra,4.95,-6.0833,79.56,light rain,88,75,8.16,CI
328,Pisco,-13.7,-76.2167,71.65,clear sky,64,0,10.36,PE
329,Mahibadhoo,3.7833,72.9667,85.12,overcast clouds,74,100,16.17,MV
330,Rancho Palos Verdes,33.7445,-118.387,80.65,clear sky,75,2,10.0,US
331,Jimo,36.3897,120.4622,44.38,clear sky,81,0,0.0,CN
332,Bad Kreuznach,49.8333,7.8667,53.98,overcast clouds,73,98,3.49,DE
333,Pyaozerskiy,65.8333,31.1667,22.96,broken clouds,90,53,3.15,RU
334,Khandyga,62.6667,135.6,20.14,broken clouds,96,63,3.33,RU
335,Nhulunbuy,-12.2333,136.7667,81.21,broken clouds,78,77,11.5,AU
336,Merritt Island,28.5392,-80.672,83.08,scattered clouds,64,40,12.66,US
337,Saint-Joseph,-21.3667,55.6167,75.58,few clouds,78,22,8.66,RE
338,Yuci,37.6803,112.7319,37.15,clear sky,56,0,4.47,CN
339,Olafsvik,64.8945,-23.7142,44.74,overcast clouds,86,97,16.26,IS
340,Eirunepe,-6.6603,-69.8736,87.69,overcast clouds,54,100,1.19,BR
341,Am Timan,11.0297,20.2827,93.72,broken clouds,26,60,2.19,TD
342,Mogadishu,2.0371,45.3438,83.28,light rain,77,100,12.26,SO
343,Petropavlovka,50.6114,105.3196,50.7,overcast clouds,48,94,3.98,RU
344,Castro,-24.7911,-50.0119,67.35,scattered clouds,86,43,1.05,BR
345,Ciudad Bolivar,8.1222,-63.5497,96.76,overcast clouds,29,100,11.39,VE
346,Bera,24.0833,89.6167,79.18,clear sky,80,6,8.9,BD
347,Talant,47.3369,5.0089,52.41,clear sky,62,0,9.22,FR
348,Ishigaki,24.3448,124.1572,73.53,broken clouds,100,75,8.05,JP
349,Tilichiki,60.4667,166.1,26.91,scattered clouds,89,45,7.23,RU
350,Cartagena,10.3997,-75.5144,89.22,thunderstorm,66,75,7.85,CO
351,Narsaq,60.9167,-46.05,46.33,few clouds,60,20,2.59,GL
352,Half Moon Bay,37.4636,-122.4286,75.06,overcast clouds,73,100,20.71,US
353,Vaitape,-16.5167,-151.75,81.3,light rain,72,8,15.75,PF
354,Buchanan,5.8808,-10.0467,80.55,broken clouds,83,73,8.32,LR
355,Leshukonskoye,64.8989,45.7622,22.51,broken clouds,94,81,3.47,RU
356,Flinders,-34.5833,150.8552,54.68,clear sky,77,0,3.0,AU
357,Turukhansk,65.8167,87.9833,7.41,overcast clouds,97,91,5.35,RU
358,Denpasar,-8.65,115.2167,80.26,few clouds,94,20,4.61,ID
359,Maun,-19.9833,23.4167,64.36,clear sky,68,0,1.14,BW
360,Delemont,47.3649,7.3445,50.54,scattered clouds,90,39,2.35,CH
361,Naica,27.85,-105.4833,86.23,clear sky,5,5,4.36,MX
362,Langenhagen,52.45,9.75,54.01,clear sky,64,0,8.05,DE
363,Laguna,38.421,-121.4238,81.14,clear sky,37,0,4.0,US
364,Colares,38.7992,-9.4469,74.88,clear sky,49,0,12.66,PT
365,Matay,28.419,30.7792,76.23,clear sky,29,0,15.64,EG
366,Mori,34.8333,137.9333,57.43,overcast clouds,73,100,7.0,JP
367,Caruray,10.3094,119.0128,78.13,overcast clouds,84,96,5.84,PH
368,Doka,13.5167,35.7667,92.52,scattered clouds,10,35,6.11,SD
369,Hoopstad,-27.8327,25.9083,55.92,clear sky,27,0,6.76,ZA
370,Oksbol,55.6268,8.2876,44.91,overcast clouds,86,90,6.35,DK
371,Saldanha,-33.0117,17.9442,57.25,clear sky,87,8,12.15,ZA
372,Mangaldan,16.0667,120.4,78.73,overcast clouds,79,91,6.98,PH
373,Karla,59.3723,24.9275,40.96,light rain,70,0,11.5,EE
374,Adrar,20.5022,-10.0711,83.26,clear sky,10,0,7.67,MR
375,Sakaiminato,35.55,133.2333,53.58,broken clouds,76,75,9.22,JP
376,Rongcheng,30.634,117.8517,52.48,overcast clouds,97,100,1.88,CN
377,Kabelvag,68.2114,14.4817,37.53,scattered clouds,62,40,3.33,NO
378,Acarau,-2.8856,-40.12,80.65,few clouds,85,16,8.61,BR
379,Naryan-Mar,67.6713,53.087,19.4,overcast clouds,94,100,10.42,RU
380,Ibb,13.9667,44.1833,66.79,overcast clouds,63,100,3.65,YE
381,Paita,-5.0892,-81.1144,74.12,broken clouds,70,77,13.85,PE
382,Bireun,5.203,96.7009,80.42,overcast clouds,83,100,3.8,ID
383,Agadez,19.75,10.25,90.07,overcast clouds,7,100,10.25,NE
384,Sorland,67.667,12.6934,37.27,scattered clouds,64,25,7.56,NO
385,Loukhi,66.0764,33.0381,24.24,few clouds,89,17,4.68,RU
386,Oranjestad,12.524,-70.027,85.95,few clouds,74,20,24.16,AW
387,Carauari,-4.8828,-66.8958,82.22,broken clouds,88,72,2.24,BR
388,Guaratinga,-16.5667,-39.5667,77.23,scattered clouds,67,50,7.11,BR
389,Versalles,48.8,2.1333,55.94,clear sky,54,0,9.22,FR
390,Dhulagari,22.5869,88.1731,82.29,few clouds,79,19,12.86,IN
391,Kamenka,51.3223,42.7678,43.36,few clouds,74,24,8.9,RU
392,Ozernovskiy,51.5,156.5167,34.92,scattered clouds,69,40,4.52,RU
393,Norton,-17.8833,30.7,60.28,clear sky,48,0,5.03,ZW
394,Inverell,-29.7833,151.1167,55.67,overcast clouds,95,100,3.0,AU
395,Touros,-5.1989,-35.4608,80.98,few clouds,71,15,15.46,BR
396,Nsanje,-16.92,35.262,66.69,clear sky,84,0,1.19,MW
397,Vila Franca Do Campo,37.7167,-25.4333,63.01,few clouds,80,16,4.09,PT
398,San Quintin,30.4833,-115.95,67.35,broken clouds,62,62,13.87,MX
399,Buraydah,26.326,43.975,82.85,clear sky,33,1,11.59,SA
400,Tazovskiy,67.4667,78.7,11.53,scattered clouds,95,42,10.0,RU
401,Iracoubo,5.4802,-53.2011,82.06,scattered clouds,73,26,9.24,GF
402,Lorengau,-2.0226,147.2712,80.58,overcast clouds,79,100,3.96,PG
403,Hovd,48.0056,91.6419,50.49,overcast clouds,26,97,7.94,MN
404,Fairview,40.8126,-73.999,69.24,clear sky,19,0,5.99,US
405,Honiara,-9.4333,159.95,77.68,broken clouds,86,75,3.27,SB
406,Jalingo,8.8833,11.3667,87.76,overcast clouds,52,100,7.43,NG
407,Hobbs,32.7026,-103.136,76.82,clear sky,12,0,8.01,US
408,Tommot,58.9564,126.2925,20.95,scattered clouds,93,26,3.15,RU
409,Maragogi,-9.0122,-35.2225,78.12,overcast clouds,78,99,8.03,BR
410,Urengoy,65.9667,78.3667,22.48,light snow,97,100,5.17,RU
411,Kysyl-Syr,63.8986,122.7617,33.1,snow,98,100,11.45,RU
412,Davila,18.4726,120.5763,81.64,scattered clouds,78,27,2.64,PH
413,Hirara,24.8,125.2833,75.31,overcast clouds,87,100,13.15,JP
414,Staryy Nadym,65.6118,72.6842,22.93,light snow,96,100,4.23,RU
415,Ostrovnoy,68.0531,39.5131,18.36,overcast clouds,83,93,10.4,RU
416,Scottsbluff,41.8666,-103.6672,55.63,scattered clouds,42,40,33.38,US
417,Kununurra,-15.7667,128.7333,80.58,scattered clouds,89,40,5.75,AU
418,Ahipara,-35.1667,173.1667,58.68,clear sky,87,9,6.42,NZ
419,Kushima,31.4583,131.2333,60.48,overcast clouds,82,100,4.47,JP
420,Port Shepstone,-30.7414,30.455,64.36,few clouds,75,13,10.02,ZA
421,Santa Isabel Do Rio Negro,-0.4139,-65.0192,74.43,overcast clouds,97,99,2.17,BR
422,Lucera,41.5082,15.3351,57.02,clear sky,68,1,4.81,IT
423,Camana,-16.6228,-72.7111,69.28,clear sky,73,9,8.55,PE
424,Kalianget,-7.05,113.9333,82.35,overcast clouds,77,86,11.59,ID
425,Trincomalee,8.5711,81.2335,82.47,few clouds,81,15,14.03,LK
426,San Carlos De Bariloche,-41.1456,-71.3082,46.15,light rain,66,75,2.3,AR
427,Kuvshinovo,57.0295,34.1725,30.97,overcast clouds,66,100,1.66,RU
428,Safford,32.834,-109.7076,84.11,clear sky,8,1,2.39,US
429,Artesia,33.8658,-118.0831,88.48,haze,55,0,10.36,US
430,Kidal,18.4411,1.4078,90.81,overcast clouds,10,100,11.9,ML
431,Sola,-13.8833,167.55,81.52,light rain,71,99,4.65,VU
432,Fairlie,55.756,-4.8556,52.23,overcast clouds,92,100,5.99,GB
433,La Palma,33.8464,-118.0467,88.5,haze,54,0,10.36,US
434,Cherdyn,60.403,56.4787,33.31,broken clouds,76,74,8.81,RU
435,Coahuayana,18.7333,-103.6833,88.57,scattered clouds,39,45,9.04,MX
436,Chaman,30.9236,66.4512,77.09,clear sky,12,1,2.42,PK
437,Itaguacu,-19.8019,-40.8556,77.07,broken clouds,70,56,5.19,BR
438,Esfarayen,37.0765,57.5101,58.66,light rain,70,100,1.68,IR
439,Palmer,42.1584,-72.3287,62.46,scattered clouds,26,40,16.11,US
440,Maceio,-9.6658,-35.7353,81.84,broken clouds,69,75,9.22,BR
441,Gharghoda,22.1667,83.35,87.21,overcast clouds,15,97,4.56,IN
442,Moron,-34.6534,-58.6198,59.0,overcast clouds,51,97,1.63,AR
443,Grindavik,63.8424,-22.4338,45.07,broken clouds,81,75,19.57,IS
444,Saint Anthony,45.0205,-93.218,52.09,mist,92,100,16.11,US
445,Kyabe,9.4515,18.9449,90.1,overcast clouds,38,99,3.76,TD
446,Tomatlan,19.9333,-105.25,90.45,overcast clouds,27,99,10.29,MX
447,Kaduy,59.2,37.15,29.19,scattered clouds,62,37,4.38,RU
448,Villa Carlos Paz,-31.4241,-64.4978,66.4,clear sky,26,2,4.0,AR
449,Alyangula,-13.8483,136.4192,69.67,broken clouds,100,72,0.0,AU
450,Nova Venecia,-18.7106,-40.4006,78.35,broken clouds,66,61,10.16,BR
451,Salvador,13.8333,-88.9167,80.06,overcast clouds,48,90,4.61,SV
452,Jiayuguan,39.8167,98.3,44.04,clear sky,32,1,4.52,CN
453,Sampit,-2.5333,112.95,73.44,light rain,98,100,0.87,ID
454,Bontang,0.1333,117.5,80.17,overcast clouds,82,100,9.19,ID
455,Keokuk,40.3973,-91.3849,72.09,broken clouds,64,75,21.85,US
456,Gazli,40.1333,63.45,81.05,overcast clouds,18,100,13.71,UZ
457,Ola,59.5833,151.2833,30.15,clear sky,69,6,7.45,RU
458,Santander Jimenez,24.2167,-98.4667,96.93,clear sky,37,0,11.74,MX
459,Ambulu,-8.345,113.6058,74.71,broken clouds,88,72,3.2,ID
460,Fairbanks,64.8378,-147.7164,54.09,clear sky,39,0,6.91,US
461,Bloomingdale,27.8936,-82.2404,87.94,scattered clouds,64,40,6.91,US
462,Takaungu,-3.6837,39.8566,81.09,overcast clouds,75,100,16.98,KE
463,Matara,5.9485,80.5353,80.98,overcast clouds,86,96,10.07,LK
464,Okhotsk,59.3833,143.3,31.93,scattered clouds,90,50,6.78,RU
465,Russell,32.3502,-85.1999,85.28,scattered clouds,51,40,10.36,US
466,Forestville,38.8451,-76.875,71.33,few clouds,25,20,5.75,US
467,Krasnyy Yar,46.5331,48.3456,53.53,clear sky,73,3,7.18,RU
468,Tolaga Bay,-38.3667,178.3,55.06,few clouds,88,23,4.03,NZ
469,Hami,42.8,93.45,60.19,clear sky,16,0,5.1,CN
470,Gravelbourg,49.8834,-106.5512,53.87,overcast clouds,38,97,13.56,CA
471,Gigmoto,13.7796,124.39,80.04,overcast clouds,83,100,7.7,PH
472,Atar,20.5169,-13.0499,86.92,clear sky,9,5,7.65,MR
473,Newport,51.5877,-2.9984,55.69,overcast clouds,65,100,6.4,GB
474,Krasnooktyabrskiy,44.9328,38.3712,58.08,overcast clouds,92,100,8.19,RU
475,Zyryanskoye,56.8306,86.6258,45.79,light rain,87,100,12.12,RU
476,Orlik,52.5178,99.825,36.37,scattered clouds,74,40,2.17,RU
477,Lysva,58.1086,57.8053,34.79,overcast clouds,61,100,4.5,RU
478,Khaga,25.7833,81.1167,85.24,overcast clouds,46,98,15.73,IN
479,Lasa,46.6166,10.7002,49.08,overcast clouds,96,98,3.36,IT
480,Searcy,35.2506,-91.7363,78.8,overcast clouds,69,100,9.22,US
481,Slave Lake,55.2834,-114.769,46.38,broken clouds,61,75,5.75,CA
482,Aden,12.7794,45.0367,83.8,overcast clouds,77,100,9.01,YE
483,San Andres,12.5847,-81.7006,86.02,broken clouds,70,75,13.8,CO
484,Korsakov,46.6328,142.7813,22.84,broken clouds,68,57,2.59,RU
485,Pereyaslovskaya,45.8412,39.0238,51.04,broken clouds,87,78,10.11,RU
486,Bereda,43.2686,-7.5406,56.14,few clouds,89,12,2.98,ES
487,Ayan,56.45,138.1667,32.22,overcast clouds,93,100,6.93,RU
488,Muyezerskiy,63.9333,31.65,27.73,broken clouds,94,84,2.06,RU
489,Bull Savanna,17.8868,-77.5902,81.95,scattered clouds,63,25,15.43,JM
490,Sao Jose Da Coroa Grande,-8.8978,-35.1478,78.75,overcast clouds,75,100,8.28,BR
491,Lodja,-3.4833,23.4333,73.85,overcast clouds,85,95,1.95,CD
492,Abu Kamal,34.4506,40.9171,78.24,light rain,37,76,13.22,SY
493,Sangar,63.9242,127.4739,26.29,overcast clouds,86,93,13.2,RU
494,Vanavara,60.34,102.2797,37.87,light rain,96,100,4.88,RU
495,Chimbote,-9.0853,-78.5783,71.73,overcast clouds,73,87,10.63,PE
496,Hengshui,37.7322,115.7011,50.0,clear sky,29,0,8.93,CN
497,Port Hardy,50.6996,-127.4199,53.78,scattered clouds,71,40,8.05,CA
498,Trofors,65.5333,13.4063,23.9,few clouds,93,16,3.29,NO
499,Berlevag,70.8578,29.0864,28.4,light snow,74,94,14.56,NO
500,Picota,-6.9197,-76.3304,84.69,overcast clouds,56,85,0.16,PE
501,Conceicao Do Araguaia,-8.2578,-49.2647,82.72,overcast clouds,70,100,3.2,BR
502,Pacific Grove,36.6177,-121.9166,73.24,scattered clouds,82,40,5.99,US
503,Kaeo,-35.1,173.7833,60.67,broken clouds,86,76,5.95,NZ
504,Marovoay,-16.1,46.6333,76.64,clear sky,81,3,4.45,MG
505,Copperas Cove,31.1241,-97.9031,86.2,clear sky,33,0,11.5,US
506,Koumra,8.9126,17.5539,90.07,broken clouds,33,72,3.94,TD
507,Halifax,44.6453,-63.5724,44.6,overcast clouds,69,100,12.66,CA
508,Vila Praia De Ancora,41.811,-8.8526,57.11,clear sky,93,1,4.72,PT
509,High Level,58.5169,-117.136,39.31,broken clouds,65,75,10.36,CA
510,Daru,-9.0763,143.2092,79.86,moderate rain,87,100,17.22,PG
511,Burgeo,47.6167,-57.6152,44.19,overcast clouds,83,100,8.01,CA
512,Golden,39.7555,-105.2211,66.16,clear sky,24,0,5.99,US
513,Shubarshi,48.5872,57.1869,57.92,overcast clouds,65,100,12.03,KZ
514,Ginda,30.6945,78.4932,61.72,clear sky,35,10,8.39,IN
515,Luena,-11.7833,19.9167,60.82,broken clouds,63,68,4.52,AO
516,Aksu,41.1231,80.2644,62.15,overcast clouds,19,100,5.37,CN
517,Goderich,43.7501,-81.7165,62.92,overcast clouds,23,100,11.5,CA
518,Ballina,-28.8667,153.5667,64.36,light rain,100,40,12.66,AU
519,New Glasgow,45.5834,-62.6486,38.98,overcast clouds,96,100,11.45,CA
520,Gola Bazar,26.3431,83.3553,79.57,clear sky,53,1,13.38,IN
521,Leh,34.1667,77.5833,43.25,overcast clouds,65,93,2.73,IN
522,Pitimbu,-7.4706,-34.8086,82.99,overcast clouds,75,95,13.89,BR
523,Tezu,27.9167,96.1667,71.85,overcast clouds,69,100,2.35,IN
524,Calabar,4.9517,8.322,77.11,broken clouds,87,82,2.8,NG
525,Komsomolskiy,40.4272,71.7189,70.52,scattered clouds,56,49,4.61,UZ
526,Korem,12.5058,39.5228,58.28,overcast clouds,71,98,4.88,ET
527,Manitouwadge,49.1215,-85.8403,58.78,overcast clouds,47,100,9.82,CA
528,Grand-Santi,4.25,-54.3833,82.17,broken clouds,71,71,3.49,GF
529,Tha Muang,13.9612,99.6412,86.79,light rain,69,99,1.86,TH
530,Jacareacanga,-6.2222,-57.7528,85.32,overcast clouds,69,98,2.08,BR
531,Washington,47.5001,-120.5015,49.48,overcast clouds,69,100,2.66,US
532,Suez,29.9737,32.5263,70.54,clear sky,50,0,11.99,EG
533,Malindi,-3.2175,40.1191,82.56,few clouds,74,20,11.5,KE
534,Alice Springs,-23.7,133.8833,56.75,scattered clouds,72,40,8.05,AU
535,Lazaro Cardenas,17.9583,-102.2,83.8,scattered clouds,52,38,10.25,MX
536,Mbandaka,0.0487,18.2603,73.35,clear sky,80,5,3.85,CD
537,Celestun,20.8667,-90.4,83.61,scattered clouds,69,27,12.03,MX
538,Biltine,14.5333,20.9167,90.48,overcast clouds,19,98,1.68,TD
539,Banda Aceh,5.5577,95.3222,81.16,overcast clouds,82,100,7.29,ID
540,Winnemucca,40.973,-117.7357,60.85,broken clouds,33,75,3.44,US
541,Mitsamiouli,-11.3847,43.2844,79.9,moderate rain,80,16,9.31,KM
542,Gairo,39.8497,9.5047,51.01,clear sky,65,5,5.59,IT
543,Vera Cruz,-12.6333,-41.0333,69.37,overcast clouds,68,94,6.51,BR
544,Itacarambi,-15.1022,-44.0919,86.43,scattered clouds,31,27,2.95,BR
545,Virginia Beach,36.8529,-75.978,62.64,overcast clouds,58,100,3.0,US
546,Bilma,18.6853,12.9164,95.68,broken clouds,8,62,5.73,NE
547,Belyy Yar,53.6039,91.3903,44.49,clear sky,57,0,2.24,RU
548,Puerto Escondido,15.85,-97.0667,88.14,clear sky,54,3,9.22,MX
549,Svelgen,61.7685,5.2955,46.33,overcast clouds,80,99,3.56,NO
550,Dzaoudzi,-12.7887,45.2699,80.49,clear sky,83,0,5.75,YT
551,Aklavik,68.2191,-135.0107,44.6,broken clouds,53,75,8.05,CA
552,Ilheus,-14.7889,-39.0494,84.02,few clouds,74,20,6.91,BR
553,Richards Bay,-28.783,32.0377,66.15,clear sky,77,9,9.37,ZA
554,Yeppoon,-23.1333,150.7333,65.98,broken clouds,93,81,9.08,AU
555,Sosnovo-Ozerskoye,52.5249,111.5418,36.41,overcast clouds,93,100,4.29,RU
556,Port Hedland,-20.3167,118.5667,73.45,broken clouds,64,66,6.91,AU
557,Karasjok,69.4719,25.5112,19.63,overcast clouds,95,99,5.55,NO
558,Santa Rosa,14.3122,121.1114,82.38,overcast clouds,78,100,7.38,PH
559,Antalaha,-14.9003,50.2788,73.18,clear sky,92,10,5.06,MG
560,Caraballeda,10.6112,-66.8522,82.76,overcast clouds,77,98,0.87,VE
561,Killarney,52.05,-9.5167,51.49,overcast clouds,79,100,4.5,IE
562,Margate,51.3813,1.3862,50.31,overcast clouds,74,100,1.01,GB
563,Beloha,-25.1667,45.05,68.31,clear sky,80,7,6.49,MG
564,Mayskiy,47.6931,40.1025,53.01,overcast clouds,64,97,13.33,RU
565,Basco,20.4487,121.9702,81.48,few clouds,78,15,11.32,PH
566,Dudinka,69.4058,86.1778,18.63,overcast clouds,93,100,15.82,RU
567,Humaita,-7.5061,-63.0208,80.29,overcast clouds,80,97,2.98,BR
568,Prestea,5.4327,-2.1428,77.58,overcast clouds,89,95,2.8,GH
569,Luderitz,-26.6481,15.1594,58.8,clear sky,66,0,17.2,NA
570,Nome,64.5011,-165.4064,45.1,light rain,57,100,8.28,US
571,Baykit,61.67,96.37,29.91,overcast clouds,96,95,2.13,RU
572,Pundaguitan,6.3711,126.1689,79.54,overcast clouds,83,99,6.93,PH
573,Xixiang,35.1628,112.865,51.64,overcast clouds,64,100,3.94,CN
574,Bambanglipuro,-7.95,110.2833,76.66,broken clouds,87,78,4.7,ID
575,Krasnoturansk,54.3186,91.5639,53.64,broken clouds,60,67,5.66,RU
576,La Roche-Sur-Yon,46.6667,-1.4333,55.67,clear sky,71,0,3.44,FR
577,Araouane,18.9048,-3.5265,87.13,clear sky,8,0,9.73,ML
578,Kuryk,43.2,51.65,63.66,clear sky,58,8,18.34,KZ
579,Polunochnoye,60.8697,60.4153,28.29,broken clouds,84,79,5.3,RU
580,Nouadhibou,20.931,-17.0347,66.18,sand,77,98,20.71,MR
581,America Dourada,-11.4553,-41.4361,78.58,overcast clouds,49,98,11.68,BR
582,Juneau,58.3019,-134.4197,54.84,clear sky,76,10,1.77,US
583,Seryshevo,51.0933,128.3786,35.78,overcast clouds,56,100,9.89,RU
584,Mnogovershinnyy,53.9353,139.9242,24.26,overcast clouds,98,99,3.65,RU
585,Port Augusta,-32.5,137.7667,56.23,clear sky,64,0,3.91,AU
586,Sarankhola,22.3082,89.7897,78.85,clear sky,89,3,6.8,BD
587,Evinayong,1.4368,10.5512,70.14,scattered clouds,93,32,2.75,GQ
588,Kon Tum,14.35,108.0,69.96,light rain,96,100,2.19,VN
589,Sorong,-0.8833,131.25,78.62,heavy intensity rain,87,100,6.38,ID
590,Altay,47.8667,88.1167,51.48,overcast clouds,31,97,10.45,CN
591,Tabuk,17.4189,121.4443,74.12,broken clouds,89,76,4.41,PH
592,Neftcala,39.3742,49.2472,61.52,overcast clouds,74,100,8.39,AZ
593,Taksimo,56.3444,114.8794,36.52,overcast clouds,96,100,2.48,RU
594,Katherine,-14.4667,132.2667,77.32,broken clouds,57,54,4.61,AU
595,Tigil,57.8,158.6667,26.82,overcast clouds,96,94,1.79,RU
596,Hobyo,5.3505,48.5268,85.01,broken clouds,72,57,11.56,SO
597,Deputatskiy,69.3,139.9,6.98,few clouds,86,24,2.84,RU
598,Kupang,-10.1667,123.5833,77.27,clear sky,86,9,6.58,ID
599,Phek,25.6667,94.5,52.97,broken clouds,97,75,1.12,IN
600,Mobaye,4.319,21.1786,69.89,light rain,95,100,2.77,CF
601,Gouyave,12.1646,-61.7296,83.17,few clouds,74,20,27.63,GD
602,Luwingu,-10.2621,29.9271,64.42,overcast clouds,81,100,2.75,ZM
603,Gat,31.61,34.7642,67.41,clear sky,100,0,9.51,IL
604,Stromness,58.965,-3.296,46.36,overcast clouds,91,100,11.99,GB
605,Modasa,23.4667,73.3,87.17,clear sky,45,0,11.9,IN
606,Bandarbeyla,9.4942,50.8122,84.09,broken clouds,74,79,5.7,SO
607,Jatai,-17.8814,-51.7144,82.04,broken clouds,45,64,4.27,BR
608,Bela,25.9333,81.9833,81.27,scattered clouds,55,50,14.34,IN
609,Kasempa,-13.4584,25.8338,59.36,clear sky,63,1,4.25,ZM
610,Kathu,7.9178,98.3332,87.69,broken clouds,99,61,5.48,TH
611,Wajima,37.4,136.9,50.72,light rain,87,100,8.57,JP
612,Serebryansk,49.6925,83.2892,53.04,overcast clouds,48,91,5.95,KZ
613,Victor Harbor,-35.5667,138.6167,55.69,clear sky,87,6,8.7,AU
614,Hofn,64.2539,-15.2082,47.44,few clouds,83,16,9.48,IS
615,Champerico,14.3,-91.9167,91.94,broken clouds,62,71,9.35,GT
616,Dawlatabad,36.4141,64.9053,81.12,overcast clouds,29,100,5.12,AF
617,Golynki,54.8696,31.3861,37.72,scattered clouds,68,36,4.25,RU
618,Mubi,10.2676,13.2644,86.32,overcast clouds,41,100,5.14,NG
619,Smithers,54.7804,-127.1743,52.12,broken clouds,35,75,5.75,CA
620,Praya,14.9215,-23.5087,73.94,few clouds,68,20,23.02,CV
621,Fallon,39.4735,-118.7774,70.45,broken clouds,20,75,3.44,US
622,Sinnar,13.5691,33.5672,93.45,few clouds,8,24,8.08,SD
623,Redding,40.5865,-122.3917,75.38,broken clouds,39,53,4.0,US
624,Kabinda,-6.1333,24.4833,69.42,light rain,92,100,0.34,CD
625,Chalinze,-6.6378,38.354,71.4,few clouds,84,22,2.73,TZ
626,Paysandu,-32.3214,-58.0756,54.0,overcast clouds,82,100,5.03,UY
627,Tigre,-34.426,-58.5796,59.25,clear sky,48,0,3.44,AR
628,Kajaani,64.2273,27.7285,30.25,clear sky,93,0,2.3,FI
629,Nishihara,26.1842,127.7558,70.88,overcast clouds,78,100,6.91,JP
630,Asau,46.4333,26.4,47.32,broken clouds,92,68,2.86,RO
631,Athens,37.9795,23.7162,65.25,few clouds,54,20,7.0,GR
632,Kosa,59.9445,54.9977,33.13,overcast clouds,82,94,7.76,RU
633,Ust-Nera,64.5667,143.2,28.13,overcast clouds,95,97,4.94,RU
634,Anchorage,61.2181,-149.9003,47.28,broken clouds,62,75,3.44,US
635,San-Pedro,4.7485,-6.6363,80.94,light rain,83,100,7.45,CI
636,Magdagachi,53.45,125.8,25.07,clear sky,60,1,4.05,RU
637,Caucaia,-3.7361,-38.6531,85.95,scattered clouds,71,40,13.8,BR
638,Nabire,-3.3667,135.4833,74.77,broken clouds,92,64,4.07,ID
639,Verkhozim,52.7122,45.418,41.77,broken clouds,69,72,9.48,RU
640,Dongsheng,39.8161,109.9776,42.53,clear sky,21,0,16.53,CN
641,Kautokeino,69.0125,23.0412,19.13,overcast clouds,86,92,4.63,NO
642,Itarema,-2.9248,-39.9167,80.33,few clouds,86,11,8.21,BR
643,Aquiraz,-3.9014,-38.3911,86.09,scattered clouds,80,30,5.3,BR
644,Rio Grande,-32.035,-52.0986,66.31,clear sky,66,4,9.1,BR
645,Vao,-22.6667,167.4833,75.13,overcast clouds,83,98,23.38,NC
646,Kamyshin,50.0983,45.416,52.57,light rain,56,96,7.36,RU
647,Baruun-Urt,46.6806,113.2792,42.26,overcast clouds,86,100,7.23,MN
648,Novikovo,51.1537,37.8879,43.23,light rain,80,55,6.73,RU
649,Tual,-5.6667,132.75,83.73,overcast clouds,74,99,15.55,ID
650,Ossora,59.2353,163.0719,24.44,broken clouds,89,55,4.29,RU
651,Beisfjord,68.3751,17.5988,32.05,overcast clouds,93,100,2.39,NO
652,Goma,-1.6792,29.2228,62.46,light rain,91,81,3.11,CD
653,Chifeng,42.2683,118.9636,44.24,overcast clouds,22,98,4.92,CN
654,Ndende,-2.4008,11.3581,74.37,overcast clouds,93,99,2.71,GA
655,Angoche,-16.2325,39.9086,72.82,few clouds,88,11,7.27,MZ
656,Martapura,-3.4167,114.85,75.29,few clouds,100,20,2.3,ID
657,Abu Dhabi,24.4667,54.3667,82.51,clear sky,66,0,3.44,AE
658,Banyo,6.75,11.8167,63.81,heavy intensity rain,96,100,6.02,CM
659,Uzhur,55.3036,89.8339,54.59,overcast clouds,52,100,7.38,RU
660,Sisimiut,66.9395,-53.6735,26.51,clear sky,54,2,3.8,GL
661,Beloomut,54.9448,39.3394,33.78,clear sky,67,9,4.16,RU
662,Roald,62.5833,6.1333,47.75,clear sky,76,0,4.61,NO
663,Sire,12.9299,5.2043,93.88,overcast clouds,24,91,6.58,NG
664,Agua Dulce,18.1333,-94.1333,89.38,few clouds,50,14,11.01,MX
665,Nueva Gerona,21.8833,-82.8,82.44,light rain,62,19,14.7,CU
666,Abu Samrah,35.3029,37.1841,66.04,clear sky,68,7,9.4,SY
667,Waddan,29.1614,16.139,82.36,broken clouds,15,65,22.93,LY
668,Saint-Georges,12.0564,-61.7485,83.88,few clouds,74,20,27.63,GD
